{"metadata":{"resultset":{"offset":1,"count":670,"limit":25}},"results":[{"elevation":143.3,"mindate":"1982-09-01","maxdate":"2014-01-01","latitude":44.3738,"name":"ACADIA NATIONAL PARK, ME US","datacoverage":0.9973,"id":"COOP:170100","elevationUnit":"METERS","longitude":-68.2591},{"elevation":104.5,"mindate":"1990-08-01","maxdate":"2013-12-01","latitude":44.517,"name":"ALBION, ME US","datacoverage":0.9963,"id":"COOP:170177","elevationUnit":"METERS","longitude":-69.434},{"elevation":181.7,"mindate":"1975-08-01","maxdate":"2012-05-01","latitude":47.0886,"name":"ALLAGASH, ME US","datacoverage":0.9999,"id":"COOP:170200","elevationUnit":"METERS","longitude":-69.025},{"elevation":250.5,"mindate":"2002-03-01","maxdate":"2015-11-01","latitude":44.653,"name":"ANDOVER 2, ME US","datacoverage":0.9998,"id":"COOP:170217","elevationUnit":"METERS","longitude":-70.7941},{"elevation":8.8,"mindate":"1952-10-01","maxdate":"2014-01-01","latitude":44.3007,"name":"AUGUSTA, ME US","datacoverage":0.0366,"id":"COOP:170273","elevationUnit":"METERS","longitude":-69.7792},{"elevation":107,"mindate":"1944-12-01","maxdate":"2015-11-01","latitude":44.3155,"name":"AUGUSTA STATE AIRPORT, ME US","datacoverage":0.9613,"id":"COOP:170275","elevationUnit":"METERS","longitude":-69.7972},{"elevation":465.7,"mindate":"1933-01-01","maxdate":"1933-08-01","latitude":44.966667,"name":"AZISCOHOS DAM, ME US","datacoverage":0.3758,"id":"COOP:170325","elevationUnit":"METERS","longitude":-70.983333},{"elevation":18,"mindate":"1931-01-01","maxdate":"1953-06-01","latitude":44.8,"name":"BANGOR, ME US","datacoverage":0.9186,"id":"COOP:170350","elevationUnit":"METERS","longitude":-68.8},{"elevation":58.5,"mindate":"2005-01-01","maxdate":"2005-12-01","latitude":44.80444,"name":"BANGOR FSS, ME US","datacoverage":1,"id":"COOP:170352","elevationUnit":"METERS","longitude":-68.81333},{"elevation":45.1,"mindate":"1953-01-01","maxdate":"2015-11-01","latitude":44.7978,"name":"BANGOR INTERNATIONAL AIRPORT, ME US","datacoverage":0.9087,"id":"COOP:170355","elevationUnit":"METERS","longitude":-68.8185},{"elevation":3,"mindate":"1938-09-01","maxdate":"1948-03-01","latitude":44.81667,"name":"BANGOR MUNICIPAL DAM, ME US","datacoverage":0.974,"id":"COOP:170360","elevationUnit":"METERS","longitude":-68.73333},{"elevation":34.1,"mindate":"1931-01-01","maxdate":"1982-08-01","latitude":44.41667,"name":"BAR HARBOR 3 NW, ME US","datacoverage":0.9742,"id":"COOP:170371","elevationUnit":"METERS","longitude":-68.25},{"elevation":166.1,"mindate":"1990-05-01","maxdate":"2010-05-01","latitude":45.2884,"name":"BARNARD, ME US","datacoverage":0.9916,"id":"COOP:170398","elevationUnit":"METERS","longitude":-69.1466},{"elevation":7.6,"mindate":"1992-12-01","maxdate":"2015-11-01","latitude":43.9316,"name":"BATH, ME US","datacoverage":1,"id":"COOP:170409","elevationUnit":"METERS","longitude":-69.8564},{"elevation":9.1,"mindate":"1945-02-01","maxdate":"2015-11-01","latitude":44.4395,"name":"BELFAST, ME US","datacoverage":0.9907,"id":"COOP:170480","elevationUnit":"METERS","longitude":-68.9892},{"elevation":207.3,"mindate":"1948-05-01","maxdate":"1988-01-01","latitude":44.41667,"name":"BETHEL, ME US","datacoverage":0.0838,"id":"COOP:170571","elevationUnit":"METERS","longitude":-70.78333},{"elevation":216.4,"mindate":"1985-08-01","maxdate":"1987-06-01","latitude":44.5,"name":"BETHEL 7 NW, ME US","datacoverage":0.8709,"id":"COOP:170578","elevationUnit":"METERS","longitude":-70.85},{"elevation":240.8,"mindate":"2013-01-01","maxdate":"2015-11-01","latitude":44.32,"name":"BETHEL 6 SSE, ME US","datacoverage":1,"id":"COOP:170583","elevationUnit":"METERS","longitude":-70.7568},{"elevation":114.3,"mindate":"1957-05-01","maxdate":"2015-11-01","latitude":45.0698,"name":"BINGHAM WYMAN DAM, ME US","datacoverage":0.9943,"id":"COOP:170600","elevationUnit":"METERS","longitude":-69.9054},{"elevation":182.9,"mindate":"1978-05-01","maxdate":"2008-02-01","latitude":45.267,"name":"BLANCHARD, ME US","datacoverage":0.838,"id":"COOP:170655","elevationUnit":"METERS","longitude":-69.5838},{"elevation":325.8,"mindate":"1931-01-01","maxdate":"2015-11-01","latitude":45.6602,"name":"BRASSUA DAM, ME US","datacoverage":0.9843,"id":"COOP:170814","elevationUnit":"METERS","longitude":-69.8119},{"elevation":128,"mindate":"1957-11-01","maxdate":"2015-11-01","latitude":46.4282,"name":"BRIDGEWATER, ME US","datacoverage":0.9656,"id":"COOP:170833","elevationUnit":"METERS","longitude":-67.8442},{"elevation":220.1,"mindate":"1953-11-01","maxdate":"1955-07-01","latitude":44.11667,"name":"BRIDGTON, ME US","datacoverage":1,"id":"COOP:170843","elevationUnit":"METERS","longitude":-70.73333},{"elevation":154.8,"mindate":"1955-08-01","maxdate":"2015-11-01","latitude":44.07,"name":"BRIDGTON 3 NW, ME US","datacoverage":0.9668,"id":"COOP:170844","elevationUnit":"METERS","longitude":-70.7468},{"elevation":21.3,"mindate":"1940-11-01","maxdate":"2004-11-01","latitude":43.9,"name":"BRUNSWICK NAS, ME US","datacoverage":0.8141,"id":"COOP:170934","elevationUnit":"METERS","longitude":-69.93333}]}