{"metadata":{"resultset":{"offset":1,"count":4566,"limit":25}},"results":[{"elevation":1670.9,"mindate":"1943-11-01","maxdate":"1953-01-01","latitude":39.45,"name":"AGATE 3 SW, CO US","datacoverage":0.9996,"id":"COOP:050092","elevationUnit":"METERS","longitude":-103.93333},{"elevation":1950.7,"mindate":"1980-01-01","maxdate":"2005-11-01","latitude":37.4011,"name":"AGUILAR, CO US","datacoverage":0.9775,"id":"COOP:050102","elevationUnit":"METERS","longitude":-104.6547},{"elevation":2634.7,"mindate":"1997-06-01","maxdate":"2015-11-01","latitude":37.3169,"name":"AGUILAR 18 WSW, CO US","datacoverage":0.9905,"id":"COOP:050105","elevationUnit":"METERS","longitude":-104.9504},{"elevation":1383.8,"mindate":"1948-08-01","maxdate":"2015-11-01","latitude":40.155,"name":"AKRON 4 E, CO US","datacoverage":0.672,"id":"COOP:050109","elevationUnit":"METERS","longitude":-103.1416},{"elevation":1421.3,"mindate":"1937-03-01","maxdate":"1999-03-01","latitude":40.16667,"name":"AKRON WASHINGTON CO AIRPORT, CO US","datacoverage":0.9503,"id":"COOP:050114","elevationUnit":"METERS","longitude":-103.21667},{"elevation":2297,"mindate":"1932-04-01","maxdate":"1949-12-01","latitude":37.46667,"name":"ALAMOSA, CO US","datacoverage":0.9999,"id":"COOP:050125","elevationUnit":"METERS","longitude":-105.88333},{"elevation":2298.2,"mindate":"2005-09-01","maxdate":"2015-11-01","latitude":37.4702,"name":"ALAMOSA 1 E, CO US","datacoverage":0.984,"id":"COOP:050128","elevationUnit":"METERS","longitude":-105.8569},{"elevation":2296.1,"mindate":"1948-01-01","maxdate":"2015-11-01","latitude":37.4389,"name":"ALAMOSA SAN LUIS VALLEY REGIONAL AIRPORT, CO US","datacoverage":0.9976,"id":"COOP:050130","elevationUnit":"METERS","longitude":-105.8613},{"elevation":2503.9,"mindate":"1944-11-01","maxdate":"2014-01-01","latitude":40.188,"name":"ALLENSPARK 2 NNW, CO US","datacoverage":0.9051,"id":"COOP:050183","elevationUnit":"METERS","longitude":-105.5019},{"elevation":2590.8,"mindate":"1994-01-01","maxdate":"2004-06-01","latitude":40.22889,"name":"ALLENSPARK 3 NW, CO US","datacoverage":0.9924,"id":"COOP:050185","elevationUnit":"METERS","longitude":-105.51833},{"elevation":1718.2,"mindate":"1947-07-01","maxdate":"2015-11-01","latitude":39.4992,"name":"ALTENBERN, CO US","datacoverage":0.9963,"id":"COOP:050214","elevationUnit":"METERS","longitude":-108.3809},{"elevation":2651.8,"mindate":"1914-12-01","maxdate":"1986-03-01","latitude":37.86667,"name":"AMES, CO US","datacoverage":0.9603,"id":"COOP:050228","elevationUnit":"METERS","longitude":-107.88333},{"elevation":1598.1,"mindate":"1943-11-01","maxdate":"1973-12-01","latitude":38.88333,"name":"AMY, CO US","datacoverage":0.9917,"id":"COOP:050242","elevationUnit":"METERS","longitude":-103.65},{"elevation":2753.9,"mindate":"1966-06-01","maxdate":"1968-01-01","latitude":38.96667,"name":"ANTERO JUNCTION 3 NN, CO US","datacoverage":0.998,"id":"COOP:050258","elevationUnit":"METERS","longitude":-105.95},{"elevation":2718.8,"mindate":"1961-06-01","maxdate":"2015-11-01","latitude":38.9933,"name":"ANTERO RESERVOIR, CO US","datacoverage":0.997,"id":"COOP:050263","elevationUnit":"METERS","longitude":-105.8919},{"elevation":1262.5,"mindate":"1992-03-01","maxdate":"2007-01-01","latitude":39.0372,"name":"ARAPAHOE 14 N, CO US","datacoverage":0.9941,"id":"COOP:050301","elevationUnit":"METERS","longitude":-102.1675},{"elevation":1225.3,"mindate":"1948-08-01","maxdate":"2015-11-01","latitude":38.8528,"name":"ARAPAHOE, CO US","datacoverage":0.3416,"id":"COOP:050304","elevationUnit":"METERS","longitude":-102.1764},{"elevation":1239,"mindate":"2003-07-01","maxdate":"2015-11-01","latitude":38.6841,"name":"ARAPAHOE 12 S, CO US","datacoverage":0.9663,"id":"COOP:050306","elevationUnit":"METERS","longitude":-102.1614},{"elevation":1884.9,"mindate":"1957-10-01","maxdate":"1963-09-01","latitude":37.01667,"name":"ARBOLES, CO US","datacoverage":1,"id":"COOP:050307","elevationUnit":"METERS","longitude":-107.41667},{"elevation":1890.7,"mindate":"2002-11-01","maxdate":"2007-07-01","latitude":37.0236,"name":"ARBOLES 1 W, CO US","datacoverage":1,"id":"COOP:050310","elevationUnit":"METERS","longitude":-107.4372},{"elevation":1460.9,"mindate":"1943-11-01","maxdate":"1972-12-01","latitude":38.91667,"name":"AROYA 6 NE, CO US","datacoverage":0.9999,"id":"COOP:050343","elevationUnit":"METERS","longitude":-103.08333},{"elevation":1597.5,"mindate":"1931-01-01","maxdate":"1958-10-01","latitude":39.28333,"name":"ARRIBA, CO US","datacoverage":0.9641,"id":"COOP:050348","elevationUnit":"METERS","longitude":-103.26667},{"elevation":1816.6,"mindate":"1948-08-01","maxdate":"1965-05-31","latitude":40.2441,"name":"DINOSAUR NATIONAL MONUMNT, CO US","datacoverage":0.297,"id":"COOP:050354","elevationUnit":"METERS","longitude":-108.9726},{"elevation":1677.9,"mindate":"1938-08-01","maxdate":"1944-11-01","latitude":39.83333,"name":"ARVADA, CO US","datacoverage":0.9471,"id":"COOP:050357","elevationUnit":"METERS","longitude":-105.13333},{"elevation":2416.5,"mindate":"1899-08-01","maxdate":"1980-07-25","latitude":39.18333,"name":"ASPEN, CO US","datacoverage":0.6425,"id":"COOP:050370","elevationUnit":"METERS","longitude":-106.83333}]}