{"metadata":{"resultset":{"offset":1,"count":1311,"limit":25}},"results":[{"elevation":1673.4,"mindate":"1962-08-01","maxdate":"2001-10-01","latitude":40.89972,"name":"ALLEN S RANCH, UT US","datacoverage":0.915,"id":"COOP:420050","elevationUnit":"METERS","longitude":-109.15278},{"elevation":1545.3,"mindate":"1931-01-01","maxdate":"2015-11-01","latitude":40.4644,"name":"ALPINE, UT US","datacoverage":0.9431,"id":"COOP:420061","elevationUnit":"METERS","longitude":-111.7708},{"elevation":2660.9,"mindate":"1944-12-01","maxdate":"2015-11-01","latitude":40.5905,"name":"ALTA, UT US","datacoverage":0.7923,"id":"COOP:420072","elevationUnit":"METERS","longitude":-111.6369},{"elevation":1941.6,"mindate":"1953-06-01","maxdate":"2015-11-01","latitude":40.3561,"name":"ALTAMONT, UT US","datacoverage":0.948,"id":"COOP:420074","elevationUnit":"METERS","longitude":-110.2877},{"elevation":2163.5,"mindate":"1916-07-01","maxdate":"2015-11-01","latitude":37.4402,"name":"ALTON, UT US","datacoverage":0.9958,"id":"COOP:420086","elevationUnit":"METERS","longitude":-112.4819},{"elevation":2055.9,"mindate":"1931-01-01","maxdate":"1953-07-01","latitude":38.36667,"name":"ALUNITE, UT US","datacoverage":0.9779,"id":"COOP:420113","elevationUnit":"METERS","longitude":-112.26667},{"elevation":1373.1,"mindate":"1951-02-01","maxdate":"1953-01-01","latitude":41.83333,"name":"AMALGA, UT US","datacoverage":0.9577,"id":"COOP:420120","elevationUnit":"METERS","longitude":-111.9},{"elevation":1394.8,"mindate":"1959-08-01","maxdate":"2008-02-01","latitude":37.25583,"name":"ANETH PLANT, UT US","datacoverage":0.928,"id":"COOP:420157","elevationUnit":"METERS","longitude":-109.32917},{"elevation":1953.8,"mindate":"1981-07-01","maxdate":"2015-11-01","latitude":38.2486,"name":"ANGLE, UT US","datacoverage":0.9661,"id":"COOP:420168","elevationUnit":"METERS","longitude":-111.9608},{"elevation":1289.9,"mindate":"1952-09-01","maxdate":"1972-10-01","latitude":40.93333,"name":"ANTELOPE ISLAND, UT US","datacoverage":0.9917,"id":"COOP:420194","elevationUnit":"METERS","longitude":-112.16667},{"elevation":1341.1,"mindate":"1973-06-01","maxdate":"1983-06-01","latitude":41.03333,"name":"ANTELOPE ISLAND NORTH, UT US","datacoverage":0.1571,"id":"COOP:420197","elevationUnit":"METERS","longitude":-112.23333},{"elevation":1969.9,"mindate":"1948-07-01","maxdate":"1975-12-01","latitude":38.11667,"name":"ANTIMONY, UT US","datacoverage":0.4277,"id":"COOP:420201","elevationUnit":"METERS","longitude":-112},{"elevation":2104.9,"mindate":"1968-10-01","maxdate":"1973-03-30","latitude":38.1,"name":"ANTIMONY CREEK, UT US","datacoverage":0.0146,"id":"COOP:420213","elevationUnit":"METERS","longitude":-111.88333},{"elevation":1293,"mindate":"1950-01-01","maxdate":"1966-04-01","latitude":40.7,"name":"SALT LAKE CITY SUBURBAN SEWAGE PLANT, UT US","datacoverage":1,"id":"COOP:420302","elevationUnit":"METERS","longitude":-111.91667},{"elevation":1247.5,"mindate":"1980-06-01","maxdate":"2015-11-01","latitude":38.6163,"name":"ARCHES NATIONAL PARK HQS, UT US","datacoverage":0.9906,"id":"COOP:420336","elevationUnit":"METERS","longitude":-109.6191},{"elevation":2127.5,"mindate":"1977-03-01","maxdate":"2011-09-01","latitude":40.6419,"name":"ARGENTA, UT US","datacoverage":0.0295,"id":"COOP:420342","elevationUnit":"METERS","longitude":-111.6797},{"elevation":1566.4,"mindate":"1956-09-01","maxdate":"1994-09-01","latitude":40.16667,"name":"BARTHOLOMEW POWERHOU, UT US","datacoverage":0.9914,"id":"COOP:420449","elevationUnit":"METERS","longitude":-111.5},{"elevation":1513,"mindate":"1941-03-01","maxdate":"1959-12-01","latitude":40.46667,"name":"BAUER, UT US","datacoverage":0.9158,"id":"COOP:420478","elevationUnit":"METERS","longitude":-112.36667},{"elevation":1806.9,"mindate":"1989-04-01","maxdate":"2015-11-01","latitude":41.9583,"name":"BEAR LAKE STATE PARK, UT US","datacoverage":0.9625,"id":"COOP:420487","elevationUnit":"METERS","longitude":-111.3923},{"elevation":1283.2,"mindate":"1969-05-01","maxdate":"1996-06-01","latitude":41.3,"name":"BEAR RIVER BAY, UT US","datacoverage":0.9417,"id":"COOP:420490","elevationUnit":"METERS","longitude":-112.26667},{"elevation":1284.1,"mindate":"1937-08-01","maxdate":"1984-02-01","latitude":41.46667,"name":"BEAR RIVER REFUGE, UT US","datacoverage":0.9982,"id":"COOP:420506","elevationUnit":"METERS","longitude":-112.26667},{"elevation":1810.5,"mindate":"1931-01-01","maxdate":"1990-05-01","latitude":38.3,"name":"BEAVER, UT US","datacoverage":0.986,"id":"COOP:420519","elevationUnit":"METERS","longitude":-112.65},{"elevation":1975.1,"mindate":"1979-08-01","maxdate":"2014-01-01","latitude":38.28,"name":"BEAVER 4 E, UT US","datacoverage":0.0152,"id":"COOP:420522","elevationUnit":"METERS","longitude":-112.5678},{"elevation":2217.4,"mindate":"1939-08-01","maxdate":"2015-11-01","latitude":38.268,"name":"BEAVER CANYON POWER HOUSE, UT US","datacoverage":0.9705,"id":"COOP:420527","elevationUnit":"METERS","longitude":-112.4813},{"elevation":1815.1,"mindate":"1931-01-01","maxdate":"1953-08-01","latitude":40.03333,"name":"BENMORE, UT US","datacoverage":0.9559,"id":"COOP:420617","elevationUnit":"METERS","longitude":-112.41667}]}