{"metadata":{"resultset":{"offset":1,"count":988,"limit":25}},"results":[{"elevation":110,"mindate":"1935-01-01","maxdate":"1938-01-01","latitude":34.83333,"name":"RIVERTON, MS US","datacoverage":0.9993,"id":"COOP:016956","elevationUnit":"METERS","longitude":-88.33333},{"elevation":15.2,"mindate":"1952-11-01","maxdate":"1966-11-01","latitude":31.53333,"name":"VIDALIA NATCHEZ, MS US","datacoverage":0.9647,"id":"COOP:169355","elevationUnit":"METERS","longitude":-91.43333},{"elevation":123.7,"mindate":"1941-01-01","maxdate":"2015-11-01","latitude":34.5011,"name":"ABBEVILLE, MS US","datacoverage":0.9166,"id":"COOP:220008","elevationUnit":"METERS","longitude":-89.5009},{"elevation":60.4,"mindate":"1891-05-01","maxdate":"2015-11-01","latitude":33.83,"name":"ABERDEEN, MS US","datacoverage":0.9385,"id":"COOP:220021","elevationUnit":"METERS","longitude":-88.5213},{"elevation":167.3,"mindate":"1940-03-01","maxdate":"2011-12-01","latitude":33.3117,"name":"ACKERMAN, MS US","datacoverage":0.9652,"id":"COOP:220039","elevationUnit":"METERS","longitude":-89.1668},{"mindate":"1940-03-01","maxdate":"1953-08-01","latitude":33.25,"name":"ACONA, MS US","datacoverage":0.8517,"id":"COOP:220048","longitude":-90.06667},{"elevation":156.1,"mindate":"1948-01-01","maxdate":"1962-03-01","latitude":34.96667,"name":"ACTON, MS US","datacoverage":0.8832,"id":"COOP:220050","elevationUnit":"METERS","longitude":-88.43333},{"elevation":78.9,"mindate":"1952-10-01","maxdate":"1972-06-01","latitude":31.88333,"name":"ALCORN A AND M COLLEGE, MS US","datacoverage":0.9579,"id":"COOP:220116","elevationUnit":"METERS","longitude":-91.15},{"elevation":156.1,"mindate":"1963-09-01","maxdate":"1975-06-01","latitude":31.75,"name":"ALLEN, MS US","datacoverage":1,"id":"COOP:220130","elevationUnit":"METERS","longitude":-90.65},{"mindate":"1952-05-01","maxdate":"1959-01-14","latitude":31.73333,"name":"ALLEN 2 WSW, MS US","datacoverage":0.0456,"id":"COOP:220134","longitude":-90.7},{"elevation":70.1,"mindate":"1992-01-01","maxdate":"2015-11-01","latitude":34.0116,"name":"AMORY LOCK AND DAM A, MS US","datacoverage":0.9861,"id":"COOP:220173","elevationUnit":"METERS","longitude":-88.4883},{"elevation":70.1,"mindate":"1956-09-01","maxdate":"1969-01-01","latitude":33.98333,"name":"AMORY 4 W, MS US","datacoverage":0.9059,"id":"COOP:220176","elevationUnit":"METERS","longitude":-88.55},{"elevation":33.5,"mindate":"1907-08-01","maxdate":"1936-04-01","latitude":32.98333,"name":"ANGUILLA, MS US","datacoverage":0.9855,"id":"COOP:220195","elevationUnit":"METERS","longitude":-90.83333},{"elevation":1.5,"mindate":"1999-12-01","maxdate":"2014-12-01","latitude":30.2208,"name":"ANSLEY, MS US","datacoverage":0.9501,"id":"COOP:220218","elevationUnit":"METERS","longitude":-89.4978},{"elevation":73.2,"mindate":"1941-08-01","maxdate":"2015-11-01","latitude":34.7803,"name":"ARKABUTLA DAM, MS US","datacoverage":0.9675,"id":"COOP:220237","elevationUnit":"METERS","longitude":-90.1153},{"elevation":183.8,"mindate":"1941-03-01","maxdate":"2015-11-01","latitude":34.8491,"name":"ASHLAND, MS US","datacoverage":0.9465,"id":"COOP:220290","elevationUnit":"METERS","longitude":-89.1598},{"elevation":61,"mindate":"1895-10-01","maxdate":"1934-08-01","latitude":34.63333,"name":"AUSTIN, MS US","datacoverage":0.9636,"id":"COOP:220325","elevationUnit":"METERS","longitude":-90.43333},{"elevation":98.1,"mindate":"1948-01-01","maxdate":"1957-01-01","latitude":31.3,"name":"AVERA, MS US","datacoverage":0.7337,"id":"COOP:220347","elevationUnit":"METERS","longitude":-88.75},{"elevation":109.7,"mindate":"1940-03-01","maxdate":"2015-11-01","latitude":34.4833,"name":"BALDWYN, MS US","datacoverage":0.9648,"id":"COOP:220378","elevationUnit":"METERS","longitude":-88.6394},{"elevation":156.1,"mindate":"1958-12-01","maxdate":"1963-10-01","latitude":31.75,"name":"BARLOW 6 SE, MS US","datacoverage":1,"id":"COOP:220427","elevationUnit":"METERS","longitude":-90.58333},{"elevation":67.1,"mindate":"1891-02-01","maxdate":"2015-11-01","latitude":34.3061,"name":"BATESVILLE 2 SW, MS US","datacoverage":0.99,"id":"COOP:220488","elevationUnit":"METERS","longitude":-89.9805},{"elevation":6.1,"mindate":"1891-02-01","maxdate":"1979-12-01","latitude":30.3,"name":"BAY SAINT LOUIS, MS US","datacoverage":0.9523,"id":"COOP:220519","elevationUnit":"METERS","longitude":-89.33333},{"elevation":9.1,"mindate":"1979-01-01","maxdate":"2014-12-01","latitude":30.3758,"name":"BAY ST LOUIS NASA, MS US","datacoverage":0.956,"id":"COOP:220521","elevationUnit":"METERS","longitude":-89.5989},{"elevation":125.3,"mindate":"1912-04-01","maxdate":"2015-11-01","latitude":31.9694,"name":"BAY SPRINGS, MS US","datacoverage":0.5965,"id":"COOP:220523","elevationUnit":"METERS","longitude":-89.2888},{"elevation":17.4,"mindate":"1942-03-01","maxdate":"1976-06-01","latitude":31.18333,"name":"BEAUMONT, MS US","datacoverage":0.9709,"id":"COOP:220581","elevationUnit":"METERS","longitude":-88.91667}]}