{"metadata":{"resultset":{"offset":1,"count":1262,"limit":25}},"results":[{"elevation":207.3,"mindate":"1941-07-01","maxdate":"2015-11-01","latitude":35.0237,"name":"ABBOTT, AR US","datacoverage":0.9451,"id":"COOP:030006","elevationUnit":"METERS","longitude":-94.1594},{"elevation":78.6,"mindate":"1948-05-01","maxdate":"2015-11-01","latitude":35.9307,"name":"ALICIA 2 NNE, AR US","datacoverage":0.8914,"id":"COOP:030064","elevationUnit":"METERS","longitude":-91.055},{"elevation":121.9,"mindate":"1944-04-01","maxdate":"1949-12-01","latitude":34.23333,"name":"ALPINE, AR US","datacoverage":0.7388,"id":"COOP:030118","elevationUnit":"METERS","longitude":-93.28333},{"elevation":212.8,"mindate":"1937-02-01","maxdate":"2015-11-01","latitude":34.7961,"name":"ALUM FORK, AR US","datacoverage":0.9948,"id":"COOP:030130","elevationUnit":"METERS","longitude":-92.8417},{"elevation":274,"mindate":"1948-01-01","maxdate":"1984-03-01","latitude":34.8,"name":"ALY, AR US","datacoverage":0.9928,"id":"COOP:030136","elevationUnit":"METERS","longitude":-93.46667},{"elevation":160.3,"mindate":"1931-01-01","maxdate":"2015-11-01","latitude":34.2466,"name":"AMITY 2 SE, AR US","datacoverage":0.843,"id":"COOP:030150","elevationUnit":"METERS","longitude":-93.4391},{"elevation":91.4,"mindate":"1940-04-01","maxdate":"2015-11-01","latitude":34.0275,"name":"ANTOINE 1 SW, AR US","datacoverage":0.9053,"id":"COOP:030178","elevationUnit":"METERS","longitude":-93.4332},{"elevation":121.9,"mindate":"1944-01-01","maxdate":"1975-04-01","latitude":34.96667,"name":"APLIN 1, AR US","datacoverage":1,"id":"COOP:030188","elevationUnit":"METERS","longitude":-93},{"elevation":159.1,"mindate":"1948-01-01","maxdate":"1966-10-01","latitude":35.41667,"name":"APPLETON, AR US","datacoverage":0.3319,"id":"COOP:030196","elevationUnit":"METERS","longitude":-92.88333},{"elevation":59.7,"mindate":"1931-01-01","maxdate":"2015-11-01","latitude":34.1433,"name":"ARKADELPHIA, AR US","datacoverage":0.9725,"id":"COOP:030220","elevationUnit":"METERS","longitude":-93.0589},{"elevation":44.2,"mindate":"1931-01-01","maxdate":"2015-11-01","latitude":33.6061,"name":"ARKANSAS CITY, AR US","datacoverage":0.9657,"id":"COOP:030234","elevationUnit":"METERS","longitude":-91.2186},{"elevation":59.1,"mindate":"1963-09-01","maxdate":"2015-11-01","latitude":34.025,"name":"ARKANSAS POST, AR US","datacoverage":0.9968,"id":"COOP:030240","elevationUnit":"METERS","longitude":-91.3444},{"elevation":97.5,"mindate":"1945-03-01","maxdate":"2015-11-01","latitude":33.6195,"name":"ASHDOWN 4 SSE, AR US","datacoverage":0.914,"id":"COOP:030286","elevationUnit":"METERS","longitude":-94.0994},{"elevation":292.6,"mindate":"1948-07-01","maxdate":"2013-12-01","latitude":34.32528,"name":"ATHENS, AR US","datacoverage":0.9465,"id":"COOP:030300","elevationUnit":"METERS","longitude":-93.98111},{"elevation":100.9,"mindate":"1948-05-03","maxdate":"1950-09-01","latitude":33.11667,"name":"ATLANTA, AR US","datacoverage":0.7913,"id":"COOP:030310","elevationUnit":"METERS","longitude":-93.03333},{"elevation":59.4,"mindate":"1943-12-01","maxdate":"2015-11-01","latitude":35.2894,"name":"AUGUSTA, AR US","datacoverage":0.9769,"id":"COOP:030326","elevationUnit":"METERS","longitude":-91.3533},{"elevation":70.1,"mindate":"1950-01-01","maxdate":"1967-03-01","latitude":35.3,"name":"BALD KNOB, AR US","datacoverage":0.9906,"id":"COOP:030350","elevationUnit":"METERS","longitude":-91.56667},{"elevation":177.1,"mindate":"1967-01-01","maxdate":"1975-03-01","latitude":35.38333,"name":"BALD KNOB 5 N, AR US","datacoverage":1,"id":"COOP:030355","elevationUnit":"METERS","longitude":-91.56667},{"elevation":110,"mindate":"1937-03-01","maxdate":"1951-01-31","latitude":35.76667,"name":"BATESVILLE AIRWAY, AR US","datacoverage":0.9996,"id":"COOP:030456","elevationUnit":"METERS","longitude":-91.65},{"elevation":174,"mindate":"1941-07-01","maxdate":"2015-11-01","latitude":35.8306,"name":"BATESVILLE LVSTK, AR US","datacoverage":0.9933,"id":"COOP:030458","elevationUnit":"METERS","longitude":-91.7944},{"elevation":88.4,"mindate":"1931-01-01","maxdate":"2015-11-01","latitude":35.7595,"name":"BATESVILLE LOCK AND DAM 1, AR US","datacoverage":0.9784,"id":"COOP:030460","elevationUnit":"METERS","longitude":-91.6384},{"elevation":67.1,"mindate":"1948-05-02","maxdate":"1960-03-01","latitude":34.71667,"name":"BEAR CREEK LAKE, AR US","datacoverage":0.1144,"id":"COOP:030496","elevationUnit":"METERS","longitude":-90.7},{"elevation":121.9,"mindate":"1940-01-01","maxdate":"1960-07-01","latitude":35.08333,"name":"BEATY LAKE, AR US","datacoverage":0.9676,"id":"COOP:030512","elevationUnit":"METERS","longitude":-90.71667},{"elevation":284.1,"mindate":"1944-11-01","maxdate":"1959-05-01","latitude":36.46667,"name":"BEAVER 1 SE, AR US","datacoverage":0.9946,"id":"COOP:030518","elevationUnit":"METERS","longitude":-93.76667},{"elevation":348.1,"mindate":"1961-06-01","maxdate":"1965-10-01","latitude":36.41667,"name":"BEAVER DAM, AR US","datacoverage":0.9618,"id":"COOP:030524","elevationUnit":"METERS","longitude":-93.83333}]}