{"metadata":{"resultset":{"offset":1,"count":1347,"limit":25}},"results":[{"elevation":365.2,"mindate":"1931-01-01","maxdate":"2015-11-01","latitude":42.8258,"name":"AKRON, IA US","datacoverage":0.7969,"id":"COOP:130088","elevationUnit":"METERS","longitude":-96.5514},{"elevation":382.5,"mindate":"1960-08-01","maxdate":"2002-12-31","latitude":42.84556,"name":"GAVINS POINT DAM, NE US","datacoverage":0.9977,"id":"COOP:253165","elevationUnit":"METERS","longitude":-97.47333},{"elevation":376.1,"mindate":"1939-01-01","maxdate":"2005-09-01","latitude":42.7472,"name":"NIOBRARA, NE US","datacoverage":0.9538,"id":"COOP:255960","elevationUnit":"METERS","longitude":-98.0466},{"elevation":395.3,"mindate":"1931-01-01","maxdate":"2015-11-01","latitude":45.4433,"name":"ABERDEEN REGIONAL AIRPORT, SD US","datacoverage":0.9863,"id":"COOP:390020","elevationUnit":"METERS","longitude":-98.413},{"elevation":396.5,"mindate":"2011-01-01","maxdate":"2015-11-01","latitude":45.4553,"name":"ABERDEEN 3 E, SD US","datacoverage":1,"id":"COOP:390022","elevationUnit":"METERS","longitude":-98.4141},{"elevation":512.1,"mindate":"1931-01-01","maxdate":"2015-11-01","latitude":43.4891,"name":"ACADEMY 2 NE, SD US","datacoverage":0.9941,"id":"COOP:390043","elevationUnit":"METERS","longitude":-99.063},{"elevation":363,"mindate":"1956-08-01","maxdate":"1959-06-01","latitude":42.95,"name":"ALCESTER 9 SE, SD US","datacoverage":0.8868,"id":"COOP:390107","elevationUnit":"METERS","longitude":-96.51667},{"elevation":378,"mindate":"1956-08-01","maxdate":"1957-09-01","latitude":42.96667,"name":"ALCESTER 8 SE, SD US","datacoverage":0.8574,"id":"COOP:390108","elevationUnit":"METERS","longitude":-96.51667},{"elevation":374.9,"mindate":"1956-08-01","maxdate":"1959-06-01","latitude":42.96667,"name":"ALCESTER 7 ESE, SD US","datacoverage":0.944,"id":"COOP:390109","elevationUnit":"METERS","longitude":-96.51667},{"elevation":390.1,"mindate":"1956-07-01","maxdate":"1959-06-30","latitude":42.96667,"name":"ALCESTER 5 SE, SD US","datacoverage":0.0332,"id":"COOP:390111","elevationUnit":"METERS","longitude":-96.56667},{"elevation":409,"mindate":"1956-08-01","maxdate":"1959-06-01","latitude":42.98333,"name":"ALCESTER 4 ESE, SD US","datacoverage":0.944,"id":"COOP:390112","elevationUnit":"METERS","longitude":-96.55},{"elevation":431.3,"mindate":"1948-08-01","maxdate":"2002-12-01","latitude":43.02889,"name":"ALCESTER, SD US","datacoverage":0.7724,"id":"COOP:390113","elevationUnit":"METERS","longitude":-96.62889},{"elevation":427,"mindate":"1956-09-01","maxdate":"1958-09-01","latitude":42.98333,"name":"ALCESTER 4 SE, SD US","datacoverage":0.6408,"id":"COOP:390114","elevationUnit":"METERS","longitude":-96.56667},{"elevation":402.9,"mindate":"1956-08-01","maxdate":"1956-09-01","latitude":42.96667,"name":"ALCESTER 6 SE, SD US","datacoverage":0.998,"id":"COOP:390115","elevationUnit":"METERS","longitude":-96.55},{"elevation":448.1,"mindate":"2005-03-01","maxdate":"2015-11-01","latitude":45.4136,"name":"ANDOVER NUMBER 2, SD US","datacoverage":0.9999,"id":"COOP:390120","elevationUnit":"METERS","longitude":-97.9063},{"elevation":412.1,"mindate":"1931-01-01","maxdate":"2015-11-01","latitude":43.6513,"name":"ALEXANDRIA, SD US","datacoverage":0.9922,"id":"COOP:390128","elevationUnit":"METERS","longitude":-97.7847},{"elevation":426.7,"mindate":"1937-04-01","maxdate":"2005-02-01","latitude":45.41361,"name":"ANDOVER, SD US","datacoverage":0.6835,"id":"COOP:390198","elevationUnit":"METERS","longitude":-97.90694},{"elevation":958,"mindate":"1947-10-01","maxdate":"1971-06-01","latitude":43.35,"name":"ANGOSTURA DAM, SD US","datacoverage":0.9825,"id":"COOP:390217","elevationUnit":"METERS","longitude":-103.43333},{"elevation":859.5,"mindate":"1951-03-01","maxdate":"2008-01-01","latitude":45.53167,"name":"ANTELOPE RANGE STATION, SD US","datacoverage":0.3689,"id":"COOP:390223","elevationUnit":"METERS","longitude":-103.32917},{"elevation":1079,"mindate":"1931-01-01","maxdate":"2015-11-01","latitude":43.03,"name":"ARDMORE 2 N, SD US","datacoverage":0.9441,"id":"COOP:390236","elevationUnit":"METERS","longitude":-103.66},{"elevation":556,"mindate":"1931-01-01","maxdate":"2011-12-01","latitude":44.363,"name":"ARLINGTON 1 W, SD US","datacoverage":0.9311,"id":"COOP:390281","elevationUnit":"METERS","longitude":-97.1702},{"elevation":460.2,"mindate":"1931-01-01","maxdate":"2008-05-01","latitude":43.313,"name":"ARMOUR, SD US","datacoverage":0.9828,"id":"COOP:390296","elevationUnit":"METERS","longitude":-98.3486},{"elevation":553.2,"mindate":"1999-12-01","maxdate":"2015-11-01","latitude":45.8811,"name":"ARTAS 1 S, SD US","datacoverage":0.9583,"id":"COOP:390306","elevationUnit":"METERS","longitude":-99.7983},{"elevation":379.2,"mindate":"1931-01-01","maxdate":"1968-12-01","latitude":44.99583,"name":"ASHTON, SD US","datacoverage":0.8223,"id":"COOP:390346","elevationUnit":"METERS","longitude":-98.48111},{"elevation":390.1,"mindate":"1969-05-01","maxdate":"2007-01-01","latitude":44.9633,"name":"ASHTON 2 S, SD US","datacoverage":0.9822,"id":"COOP:390350","elevationUnit":"METERS","longitude":-98.5113}]}