{"metadata":{"resultset":{"offset":1,"count":1862,"limit":25}},"results":[{"elevation":91.4,"mindate":"1931-01-01","maxdate":"2015-11-01","latitude":36.4546,"name":"SAINT FRANCIS, AR US","datacoverage":0.9843,"id":"COOP:036380","elevationUnit":"METERS","longitude":-90.1459},{"elevation":132.6,"mindate":"1943-09-01","maxdate":"2015-11-01","latitude":38.8663,"name":"ALTON MELVIN PRICE, IL US","datacoverage":0.9389,"id":"COOP:110137","elevationUnit":"METERS","longitude":-90.1463},{"elevation":135,"mindate":"1931-01-01","maxdate":"2001-10-01","latitude":38.9681,"name":"GRAFTON, IL US","datacoverage":0.9694,"id":"COOP:113572","elevationUnit":"METERS","longitude":-90.4289},{"elevation":116.7,"mindate":"1940-04-01","maxdate":"2011-12-01","latitude":37.6591,"name":"GRAND TOWER 2 N, IL US","datacoverage":0.964,"id":"COOP:113595","elevationUnit":"METERS","longitude":-89.5102},{"elevation":131.1,"mindate":"1978-05-01","maxdate":"2000-09-01","latitude":36.75833,"name":"COLUMBUS, MO US","datacoverage":0.9998,"id":"COOP:151727","elevationUnit":"METERS","longitude":-89.12167},{"elevation":259.1,"mindate":"1973-08-01","maxdate":"1990-03-01","latitude":38.4,"name":"ADRIAN, MO US","datacoverage":0.0115,"id":"COOP:230018","elevationUnit":"METERS","longitude":-94.35},{"elevation":109.7,"mindate":"1937-01-01","maxdate":"2014-01-01","latitude":37.0955,"name":"ADVANCE 1 S, MO US","datacoverage":0.959,"id":"COOP:230022","elevationUnit":"METERS","longitude":-89.9161},{"elevation":266.7,"mindate":"1931-01-01","maxdate":"2015-11-01","latitude":40.2486,"name":"ALBANY, MO US","datacoverage":0.4956,"id":"COOP:230051","elevationUnit":"METERS","longitude":-94.3308},{"elevation":213.4,"mindate":"1973-06-01","maxdate":"2011-06-01","latitude":37.1527,"name":"ALLEY SPRING RANGER STATION, MO US","datacoverage":0.9831,"id":"COOP:230088","elevationUnit":"METERS","longitude":-91.4438},{"mindate":"1940-08-01","maxdate":"1947-12-01","latitude":36.63333,"name":"ALTON 10 SE, MO US","datacoverage":1,"id":"COOP:230122","longitude":-91.23333},{"elevation":247.8,"mindate":"1948-08-01","maxdate":"2014-12-01","latitude":36.69184,"name":"ALTON, MO US","datacoverage":0.7867,"id":"COOP:230127","elevationUnit":"METERS","longitude":-91.39902},{"mindate":"1937-07-01","maxdate":"1950-09-01","latitude":38.4,"name":"ALTONA, MO US","datacoverage":0.9999,"id":"COOP:230135","longitude":-94.21667},{"elevation":296.9,"mindate":"1935-05-01","maxdate":"2015-11-01","latitude":39.8913,"name":"AMITY 4 NE, MO US","datacoverage":0.9421,"id":"COOP:230143","elevationUnit":"METERS","longitude":-94.36},{"elevation":262.1,"mindate":"1948-08-01","maxdate":"1973-08-23","latitude":38.35,"name":"AMSTERDAM, MO US","datacoverage":1,"id":"COOP:230151","elevationUnit":"METERS","longitude":-94.58333},{"elevation":340.5,"mindate":"2008-08-01","maxdate":"2015-11-01","latitude":36.64492,"name":"ANDERSON 3 W, MO US","datacoverage":1,"id":"COOP:230163","elevationUnit":"METERS","longitude":-94.48552},{"elevation":320,"mindate":"1943-07-01","maxdate":"2008-07-01","latitude":36.65194,"name":"ANDERSON, MO US","datacoverage":0.9999,"id":"COOP:230164","elevationUnit":"METERS","longitude":-94.43861},{"elevation":320,"mindate":"1931-01-01","maxdate":"1943-05-01","latitude":36.65,"name":"ANDERSON, MO US","datacoverage":0.9935,"id":"COOP:230165","elevationUnit":"METERS","longitude":-94.51667},{"elevation":180.1,"mindate":"1943-07-01","maxdate":"1978-12-01","latitude":37.3,"name":"ANNAPOLIS 3 SW, MO US","datacoverage":0.913,"id":"COOP:230179","elevationUnit":"METERS","longitude":-90.76667},{"elevation":264,"mindate":"1931-01-01","maxdate":"2015-11-01","latitude":38.1872,"name":"APPLETON CITY, MO US","datacoverage":0.9961,"id":"COOP:230204","elevationUnit":"METERS","longitude":-94.0283},{"elevation":279.8,"mindate":"1931-01-01","maxdate":"2009-02-01","latitude":37.598,"name":"ARCADIA, MO US","datacoverage":0.871,"id":"COOP:230224","elevationUnit":"METERS","longitude":-90.6263},{"elevation":342.9,"mindate":"1978-05-01","maxdate":"2015-11-01","latitude":37.2613,"name":"ASH GROVE 4 S, MO US","datacoverage":0.9667,"id":"COOP:230304","elevationUnit":"METERS","longitude":-93.5911},{"mindate":"1948-08-01","maxdate":"1961-11-22","latitude":40.45,"name":"ASHTON 1 W, MO US","datacoverage":0.9742,"id":"COOP:230312","longitude":-91.81667},{"elevation":262.1,"mindate":"1944-06-01","maxdate":"1979-12-01","latitude":38.96667,"name":"AUXVASSE 4 SSW, MO US","datacoverage":0.9555,"id":"COOP:230357","elevationUnit":"METERS","longitude":-91.91667},{"elevation":381.9,"mindate":"2006-09-01","maxdate":"2015-11-01","latitude":37.0091,"name":"AVA 6 NW, MO US","datacoverage":0.9731,"id":"COOP:230360","elevationUnit":"METERS","longitude":-92.7561},{"elevation":390.1,"mindate":"1940-01-01","maxdate":"1972-06-01","latitude":36.95,"name":"AVA RANGER STATION, MO US","datacoverage":0.9052,"id":"COOP:230365","elevationUnit":"METERS","longitude":-92.66667}]}