{"metadata":{"resultset":{"offset":1,"count":28,"limit":25}},"results":[{"elevation":78.9,"mindate":"1948-08-01","maxdate":"1958-03-01","latitude":38.95,"name":"BRIGHTWOOD DC, DC US","datacoverage":0.9399,"id":"COOP:181135","elevationUnit":"METERS","longitude":-77.01667},{"elevation":45.7,"mindate":"1946-01-01","maxdate":"2015-11-01","latitude":38.9385,"name":"DALECARLIA RESERVOIR, DC US","datacoverage":0.9547,"id":"COOP:182325","elevationUnit":"METERS","longitude":-77.1134},{"elevation":15.2,"mindate":"1946-01-01","maxdate":"2015-11-01","latitude":38.9133,"name":"NATIONAL ARBORETUM DC, DC US","datacoverage":0.9404,"id":"COOP:186350","elevationUnit":"METERS","longitude":-76.97},{"elevation":70.1,"mindate":"1944-07-01","maxdate":"1978-06-01","latitude":38.93333,"name":"U S SOLDIERS HOME DC, DC US","datacoverage":0.9045,"id":"COOP:189035","elevationUnit":"METERS","longitude":-77.01667},{"elevation":21.9,"mindate":"1948-05-01","maxdate":"1965-12-25","latitude":38.9,"name":"WASHINGTON DC WEATHER BUREAU CITY, DC US","datacoverage":1,"id":"COOP:189290","elevationUnit":"METERS","longitude":-77.05},{"elevation":17.1,"mindate":"2006-05-01","maxdate":"2006-08-31","latitude":38.9171,"name":"WASHINGTON 3.0 ENE, DC US","datacoverage":0.9919,"id":"GHCND:US1DCDC0001","elevationUnit":"METERS","longitude":-76.9626},{"elevation":85,"mindate":"2006-05-01","maxdate":"2007-03-17","latitude":38.9574,"name":"WASHINGTON 3.7 NNW, DC US","datacoverage":0.9925,"id":"GHCND:US1DCDC0002","elevationUnit":"METERS","longitude":-77.0337},{"elevation":91.1,"mindate":"2006-05-01","maxdate":"2006-08-31","latitude":38.9377,"name":"WASHINGTON 5.0 WNW, DC US","datacoverage":0.9898,"id":"GHCND:US1DCDC0003","elevationUnit":"METERS","longitude":-77.0991},{"elevation":21.9,"mindate":"2007-03-01","maxdate":"2007-12-31","latitude":38.8928,"name":"WASHINGTON 2.0 ESE, DC US","datacoverage":0.9947,"id":"GHCND:US1DCDC0006","elevationUnit":"METERS","longitude":-76.9834},{"elevation":25,"mindate":"2007-03-01","maxdate":"2007-09-17","latitude":38.8943,"name":"WASHINGTON 1.2 SE, DC US","datacoverage":0.998,"id":"GHCND:US1DCDC0007","elevationUnit":"METERS","longitude":-76.9982},{"elevation":27.1,"mindate":"2007-08-01","maxdate":"2008-10-01","latitude":38.8901,"name":"WASHINGTON 2.0 ESE, DC US","datacoverage":0.998,"id":"GHCND:US1DCDC0008","elevationUnit":"METERS","longitude":-76.9854},{"elevation":3,"mindate":"2008-01-01","maxdate":"2017-10-09","latitude":38.8766,"name":"WASHINGTON 2.0 SSW, DC US","datacoverage":0.4948,"id":"GHCND:US1DCDC0009","elevationUnit":"METERS","longitude":-77.0224},{"elevation":88.1,"mindate":"2008-07-01","maxdate":"2016-12-16","latitude":38.9773,"name":"WASHINGTON 5.0 N, DC US","datacoverage":0.4227,"id":"GHCND:US1DCDC0010","elevationUnit":"METERS","longitude":-77.0245},{"elevation":81.4,"mindate":"2008-10-01","maxdate":"2010-10-22","latitude":38.9303,"name":"WASHINGTON 4.0 WNW, DC US","datacoverage":0.44,"id":"GHCND:US1DCDC0011","elevationUnit":"METERS","longitude":-77.0831},{"elevation":106.4,"mindate":"2011-06-01","maxdate":"2017-10-09","latitude":38.9581,"name":"WASHINGTON 5.1 NW, DC US","datacoverage":0.9996,"id":"GHCND:US1DCDC0014","elevationUnit":"METERS","longitude":-77.0817},{"elevation":50.6,"mindate":"2011-09-01","maxdate":"2017-06-13","latitude":38.9203,"name":"WASHINGTON 1.9 WNW, DC US","datacoverage":0.7999,"id":"GHCND:US1DCDC0015","elevationUnit":"METERS","longitude":-77.0456},{"elevation":9.1,"mindate":"2015-03-01","maxdate":"2017-10-09","latitude":38.8958,"name":"THE WHITE HOUSE, DC US","datacoverage":0.9973,"id":"GHCND:US1DCDC0019","elevationUnit":"METERS","longitude":-77.037},{"elevation":78.9,"mindate":"1944-11-01","maxdate":"1959-07-31","latitude":38.95,"name":"BRIGHTWOOD DC, DC US","datacoverage":0.6669,"id":"GHCND:USC00181135","elevationUnit":"METERS","longitude":-77.01667},{"elevation":45.7,"mindate":"1948-08-01","maxdate":"2017-08-31","latitude":38.9385,"name":"DALECARLIA RESERVOIR, DC US","datacoverage":1,"id":"GHCND:USC00182325","elevationUnit":"METERS","longitude":-77.1134},{"elevation":15.2,"mindate":"1948-08-01","maxdate":"2017-08-31","latitude":38.9133,"name":"NATIONAL ARBORETUM DC, DC US","datacoverage":1,"id":"GHCND:USC00186350","elevationUnit":"METERS","longitude":-76.97},{"elevation":70.1,"mindate":"1948-08-01","maxdate":"1977-12-31","latitude":38.93333,"name":"U S SOLDIERS HOME DC, DC US","datacoverage":0.9999,"id":"GHCND:USC00189035","elevationUnit":"METERS","longitude":-77.01667},{"elevation":18,"mindate":"1947-08-01","maxdate":"1969-09-04","latitude":38.83333,"name":"WASHINGTON DC BOLLING FIELD AFB, DC US","datacoverage":0.8744,"id":"GHCND:USW00013710","elevationUnit":"METERS","longitude":-77.01667},{"elevation":15.8,"mindate":"1945-03-01","maxdate":"1956-12-05","latitude":38.85,"name":"ANACOSTIA NAS, VA US","datacoverage":0.833,"id":"GHCND:USW00013751","elevationUnit":"METERS","longitude":-77.03333},{"elevation":21.9,"mindate":"1851-03-01","maxdate":"1965-12-31","latitude":38.9,"name":"WASHINGTON DC WEATHER BUREAU CITY, DC US","datacoverage":0.3468,"id":"GHCND:USW00093725","elevationUnit":"METERS","longitude":-77.05},{"elevation":34.1,"mindate":"1995-01-01","maxdate":"2017-10-13","latitude":36.98389,"name":"NORFOLK RICH, VA US","datacoverage":0.95,"id":"NEXRAD:KAKQ","elevationUnit":"METERS","longitude":-77.0075}]}