{"metadata":{"resultset":{"offset":1,"count":135,"limit":25}},"results":[{"elevation":30.5,"mindate":"1991-07-01","maxdate":"1994-03-01","latitude":41.56667,"name":"ADAMSVILLE 2 NW, RI US","datacoverage":0.9994,"id":"COOP:370218","elevationUnit":"METERS","longitude":-71.15},{"elevation":167.9,"mindate":"1948-06-01","maxdate":"1956-12-01","latitude":41.6,"name":"AUSTIN, RI US","datacoverage":0.9997,"id":"COOP:370576","elevationUnit":"METERS","longitude":-71.65},{"elevation":32,"mindate":"1948-01-01","maxdate":"1997-04-01","latitude":41.16806,"name":"BLOCK ISLAND STATE AIRPORT, RI US","datacoverage":0.9444,"id":"COOP:370896","elevationUnit":"METERS","longitude":-71.57778},{"elevation":85.3,"mindate":"2015-08-01","maxdate":"2015-11-01","latitude":41.6684,"name":"COVENTRY 2, RI US","datacoverage":0.998,"id":"COOP:371875","elevationUnit":"METERS","longitude":-71.5571},{"elevation":18,"mindate":"1948-05-01","maxdate":"1950-04-20","latitude":41.46667,"name":"FORT ADAMS, RI US","datacoverage":0.998,"id":"COOP:372826","elevationUnit":"METERS","longitude":-71.33333},{"elevation":128,"mindate":"1938-04-01","maxdate":"1974-08-01","latitude":41.88333,"name":"GREENVILLE, RI US","datacoverage":0.9015,"id":"COOP:373306","elevationUnit":"METERS","longitude":-71.56667},{"elevation":35.7,"mindate":"1931-01-01","maxdate":"2015-11-01","latitude":41.4903,"name":"KINGSTON, RI US","datacoverage":0.9932,"id":"COOP:374266","elevationUnit":"METERS","longitude":-71.543},{"elevation":31.1,"mindate":"1948-01-01","maxdate":"1948-09-01","latitude":41.5,"name":"MIDDLETOWN 2 NE NEWP, RI US","datacoverage":0.9998,"id":"COOP:375002","elevationUnit":"METERS","longitude":-71.26667},{"elevation":4.6,"mindate":"1957-11-01","maxdate":"2005-06-01","latitude":41.5,"name":"NEWPORT ROSE, RI US","datacoverage":0.9676,"id":"COOP:375215","elevationUnit":"METERS","longitude":-71.35},{"elevation":3,"mindate":"1950-05-01","maxdate":"1965-03-29","latitude":41.5,"name":"NEWPORT WATER WORKS, RI US","datacoverage":0.8574,"id":"COOP:375225","elevationUnit":"METERS","longitude":-71.3},{"elevation":192,"mindate":"1974-10-01","maxdate":"2015-11-01","latitude":41.8564,"name":"NORTH FOSTER 1 E, RI US","datacoverage":1,"id":"COOP:375270","elevationUnit":"METERS","longitude":-71.7333},{"elevation":207,"mindate":"1969-12-01","maxdate":"1974-09-01","latitude":41.83333,"name":"NORTH SCITUATE 4 W, RI US","datacoverage":1,"id":"COOP:375354","elevationUnit":"METERS","longitude":-71.68333},{"elevation":29.6,"mindate":"1931-01-01","maxdate":"1938-02-01","latitude":41.866667,"name":"PAWTUCKET, RI US","datacoverage":1,"id":"COOP:375882","elevationUnit":"METERS","longitude":-71.366667},{"elevation":68.6,"mindate":"1938-03-01","maxdate":"1946-11-01","latitude":41.533333,"name":"PORTSMOUTH, RI US","datacoverage":0.9711,"id":"COOP:376453","elevationUnit":"METERS","longitude":-71.266667},{"elevation":16.8,"mindate":"1948-05-01","maxdate":"2015-11-01","latitude":41.7225,"name":"PROVIDENCE, RI US","datacoverage":0.9704,"id":"COOP:376698","elevationUnit":"METERS","longitude":-71.4325},{"elevation":21,"mindate":"1948-05-01","maxdate":"1953-04-27","latitude":41.83333,"name":"PROVIDENCE, RI US","datacoverage":1,"id":"COOP:376703","elevationUnit":"METERS","longitude":-71.41667},{"elevation":46,"mindate":"1940-04-01","maxdate":"1948-09-01","latitude":41.53333,"name":"SLOCUM, RI US","datacoverage":0.9901,"id":"COOP:377567","elevationUnit":"METERS","longitude":-71.51667},{"elevation":27.4,"mindate":"1998-05-01","maxdate":"2015-11-01","latitude":41.6268,"name":"TIVERTON, RI US","datacoverage":0.9999,"id":"COOP:377581","elevationUnit":"METERS","longitude":-71.2093},{"elevation":11.9,"mindate":"1944-11-01","maxdate":"1950-10-01","latitude":41.36667,"name":"WESTERLY 1 W, RI US","datacoverage":0.9447,"id":"COOP:378911","elevationUnit":"METERS","longitude":-71.83333},{"elevation":14.9,"mindate":"1948-01-01","maxdate":"1948-09-01","latitude":41.43333,"name":"WOOD RIVER JUNCTION, RI US","datacoverage":0.9998,"id":"COOP:379327","elevationUnit":"METERS","longitude":-71.7},{"elevation":33.5,"mindate":"1948-05-01","maxdate":"2015-11-01","latitude":41.9844,"name":"WOONSOCKET, RI US","datacoverage":0.885,"id":"COOP:379423","elevationUnit":"METERS","longitude":-71.4907},{"elevation":26.2,"mindate":"2008-04-01","maxdate":"2010-04-17","latitude":41.7174,"name":"WARREN 1.0 SE, RI US","datacoverage":0.998,"id":"GHCND:US1RIBR0001","elevationUnit":"METERS","longitude":-71.2728},{"elevation":6.4,"mindate":"2017-04-17","maxdate":"2017-10-09","latitude":41.7418,"name":"BARRINGTON 1.3 WNW, RI US","datacoverage":1,"id":"GHCND:US1RIBR0005","elevationUnit":"METERS","longitude":-71.3419},{"elevation":118,"mindate":"2008-04-01","maxdate":"2016-07-08","latitude":41.673,"name":"COVENTRY CENTER, RI US","datacoverage":0.9995,"id":"GHCND:US1RIKN0001","elevationUnit":"METERS","longitude":-71.617},{"elevation":8.8,"mindate":"2008-04-01","maxdate":"2017-10-09","latitude":41.6625,"name":"EAST GREENWICH 2.3 ESE, RI US","datacoverage":1,"id":"GHCND:US1RIKN0002","elevationUnit":"METERS","longitude":-71.4159}]}